<?xml version='1.0' ?><markers> <marker doi="05r8-we91" country="Myanmar" project_name="Bagan - Loka Hteik Pan" lat=" 21.165331" lng=" 94.865351" status="Upcoming" collection_date_start="2016-05-24" collection_date_end="2016-05-27" collectors="CyArk , Carleton University" collectorsURL="https://cyark.org/ , https://carleton.ca/cee/" /><marker doi="07af-c325" country="United States of America" project_name="Santa Cruz Mission Adobe State Historic Park " lat="36.977558" lng="-122.027999" status="Published" collection_date_start="2015-03-21" collection_date_end="2015-03-22" collectors="University of San Francisco , California State Parks , CyArk" collectorsURL="https://www.usfca.edu/ , https://www.parks.ca.gov/ , https://cyark.org/" /><marker doi="0bab-t430" country="Maldives" project_name="Fuvahmulah Havitta 3 (GNI-HAD-6-S3)" lat="-0.281164123" lng="73.41903675" status="Published" collection_date_start="2019-04-20" collection_date_end="2019-04-20" collectors="Maldives Heritage Survey" collectorsURL="https://maldivesheritage.oxcis.ac.uk/" /><marker doi="0qce-vj74" country="Scotland" project_name="Heart of Neolithic Orkney - Maeshowe" lat="58.996527" lng=" -3.188117" status="Published" collection_date_start="2010-08-01" collection_date_end="2010-08-31" collectors="Historic Environment Scotland , CyArk , School of Simulation and Visualisation" collectorsURL="https://www.historicenvironment.scot/ , https://cyark.org/ , http://www.gsa.ac.uk/research/research-centres/school-of-simulation-and-visualisation/" /><marker doi="0rhk-q439" country="Maldives" project_name="Fuvahmulah Havitta 4 (GNI-HAD-6-S4)" lat="-0.2809922912" lng="73.41904576" status="Published" collection_date_start="2019-04-20" collection_date_end="2019-04-20" collectors="Maldives Heritage Survey" collectorsURL="https://maldivesheritage.oxcis.ac.uk/" /><marker doi="0scs-yy66" country="United States of America" project_name="John Muir National Historic Site" lat="37.991294" lng="-122.131333" status="Published" collection_date_start="2013-07-30" collection_date_end="2013-08-01" collectors="CyArk" collectorsURL="https://cyark.org/" /><marker doi="0skp-z245" country="Russia" project_name="Shukhov Tower" lat="55.717334" lng="37.61163" status="Published" collection_date_start="2011-12-01" collection_date_end="2011-12-02" collectors="S.I. Vavilov Institute for the History of Science and Technology of the Russian Academy of Sciences" collectorsURL="http://ihst.ru/en/" /><marker doi="0t82-j920" country="Maldives" project_name="Fuvahmulah Havitta 5 (GNI-HAD-6-S5 )" lat="-0.280739032974" lng="73.418821207783" status="Published" collection_date_start="2019-04-20" collection_date_end="2019-04-20" collectors="Maldives Heritage Survey" collectorsURL="https://maldivesheritage.oxcis.ac.uk/" /><marker doi="0yej-xt65" country="United States of America" project_name="Presidio of San Francisco" lat="37.797562" lng="-122.459049" status="Published" collection_date_start="2011-08-18" collection_date_end="2011-10-05" collectors="CyArk" collectorsURL="https://cyark.org/" /><marker doi="0z98-d586" country="Maldives" project_name="Fuvahmulah Havitta 6 (GNI-HAD-6-S6)" lat="-0.280711867194" lng="73.418569675972" status="Published" collection_date_start="2019-04-20" collection_date_end="2019-04-20" collectors="Maldives Heritage Survey" collectorsURL="https://maldivesheritage.oxcis.ac.uk/" /><marker doi="1f1v-4r05" country="Maldives" project_name="Fuvahmulah Havitta 7 (GNI-HAD-6-S7)" lat="-0.281100735262" lng="73.418443855965" status="Published" collection_date_start="2019-04-20" collection_date_end="2019-04-20" collectors="Maldives Heritage Survey" collectorsURL="https://maldivesheritage.oxcis.ac.uk/" /><marker doi="1g63-yq03" country="Australia" project_name="Fort Lytton" lat="-27.410053" lng="153.151392" status="Published" collection_date_start="2013-10-07" collection_date_end="2013-10-11" collectors="Queensland University of Technology" collectorsURL="https://www.qut.edu.au/" /><marker doi="1wv3-9775" country="Japan" project_name="Komainu/ Kobe/ Ikuta-jinja" lat="34.694732" lng="135.190692" status="Published" collection_date_start="2018-12-18" collection_date_end="2018-12-19" collectors="NRHK" collectorsURL="https://www.nrhk.or.jp/" /><marker doi="1x4b-8e19" country="Maldives" project_name="Aasaaree Miskiyy Complex- Maa Miskiyy Complex- Hirigalu Miskiyy Complex- Ihavandhoo Old Mosque (HAF-" lat="6.9548459979" lng="72.9272510994" status="Published" collection_date_start="2019-11-18" collection_date_end="2019-11-18" collectors="Maldives Heritage Survey" collectorsURL="https://maldivesheritage.oxcis.ac.uk/" /><marker doi="1y51-6f21" country="South Africa" project_name="Corbelled Houses of Karoo - Slingersfontein" lat="-31.5751" lng="21.92855" status="Published" collection_date_start="0000-00-00" collection_date_end="0000-00-00" collectors="The African Conservation Trust , University of KwaZulu-Natal" collectorsURL="https://projectafrica.com/ , https://www.ukzn.ac.za/" /><marker doi="24bt-m320" country="Maldives" project_name="Thakandhoo Cemetery (HAF-TKD-1)" lat="6.8459660647" lng="72.9934023026" status="Published" collection_date_start="2019-12-02" collection_date_end="2019-12-02" collectors="Maldives Heritage Survey" collectorsURL="https://maldivesheritage.oxcis.ac.uk/" /><marker doi="2atk-cq42" country="Mexico" project_name="Chichen Itza" lat="20.6827869" lng="-88.568954" status="Published" collection_date_start="2005-10-24" collection_date_end="2005-11-12" collectors="CyArk , Metco Services , Epic Scan" collectorsURL="https://cyark.org/ , http://metcoservices.com/ , http://epicscan.com/" /><marker doi="2bkv-jf29" country="United States of America" project_name="Natchez National Historical Park - Johnson House" lat="31.560077" lng="-91.405801" status="Published" collection_date_start="2014-09-08" collection_date_end="2014-09-12" collectors="CyArk , Trimble" collectorsURL="https://cyark.org/ , https://www.trimble.com/" /><marker doi="2eym-zc76" country="Maldives" project_name="Fuvahmulah Havitta 8 (GNI-HAD-6-S8)" lat="-0.281046450163" lng="73.418282161922" status="Published" collection_date_start="2019-04-20" collection_date_end="2019-04-20" collectors="Maldives Heritage Survey" collectorsURL="https://maldivesheritage.oxcis.ac.uk/" /><marker doi="2jj5-nx76" country="Maldives" project_name="Fuvahmulah Havitta 9 (GNI-HAD-6-S9 )" lat="-0.280594237320" lng="73.418129504794" status="Published" collection_date_start="2019-04-20" collection_date_end="2019-04-20" collectors="Maldives Heritage Survey" collectorsURL="https://maldivesheritage.oxcis.ac.uk/" /><marker doi="2pys-t414" country="Canada" project_name="Fort York National Historic Site" lat="43.638794" lng="-79.404847" status="Published" collection_date_start="2017-10-02" collection_date_end="2017-10-06" collectors="CyArk" collectorsURL="https://cyark.org/" /><marker doi="2rh9-xs62" country="Maldives" project_name="Fuvahmulah Havitta 10 (GNI-HAD-6-S10 )" lat="-0.280467626000" lng="73.418147488612" status="Published" collection_date_start="2019-04-20" collection_date_end="2019-04-20" collectors="Maldives Heritage Survey" collectorsURL="https://maldivesheritage.oxcis.ac.uk/" /><marker doi="2ryx-nq44" country="Turkmenistan" project_name="Ancient Merv - Sultan Kala" lat="37.665012" lng="62.166449" status="Published" collection_date_start="2011-09-15" collection_date_end="2011-09-25" collectors="Ancient Merv Project" collectorsURL="https://www.ucl.ac.uk/archaeology/research/ancient-merv-project" /><marker doi="2tka-0y25" country="Scotland" project_name="Heart of Neolithic Orkney - The Stones of Stenness" lat="58.994031" lng="-3.208036" status="Upcoming" collection_date_start="2010-08-01" collection_date_end="2010-08-31" collectors="Historic Environment Scotland , CyArk , School of Simulation and Visualisation" collectorsURL="https://www.historicenvironment.scot/ , https://cyark.org/ , http://www.gsa.ac.uk/research/research-centres/school-of-simulation-and-visualisation/" /><marker doi="2we8-d437" country="Maldives" project_name="Fuvahmulah Havitta 11 ( GNI-HAD-6-S11 )" lat="-0.280594210410" lng="73.417931869858" status="Published" collection_date_start="2019-04-20" collection_date_end="2019-04-20" collectors="Maldives Heritage Survey" collectorsURL="https://maldivesheritage.oxcis.ac.uk/" /><marker doi="2zz6-k952" country="Maldives" project_name="Hukuru Miskiyy - Keela (HAF-KLA-2)" lat="6.9592838131" lng="73.2129033976" status="Published" collection_date_start="2020-02-05" collection_date_end="2020-02-05" collectors="Maldives Heritage Survey" collectorsURL="https://maldivesheritage.oxcis.ac.uk/" /><marker doi="36b2-mp38" country="United States of America" project_name="Manzanar National Historic Site" lat="36.727229" lng="-118.152790" status="Published" collection_date_start="2011-09-27" collection_date_end="2011-10-02" collectors="CyArk , Architectural Resource Consultants" collectorsURL="https://cyark.org/ , https://www.arc-corporate.com/" /><marker doi="37v3-j883" country="Spain" project_name="Santa Maria de Vilagrassa" lat="41.648333" lng="1.105556" status="Published" collection_date_start="2016-08-06" collection_date_end="2016-06-08" collectors="Calidos" collectorsURL="http://www.calidos.cat/" /><marker doi="3axe-1f63" country="Greece" project_name="Temple of Apollo - Portara" lat="37.110146" lng="25.372421" status="Published" collection_date_start="2016-06-22" collection_date_end="2016-06-22" collectors="CyArk" collectorsURL="https://cyark.org/" /><marker doi="3bkw-zz32" country="Maldives" project_name="Fuvahmulah Havitta 12 (GNI-HAD-6-S12 )" lat="-0.280684650028" lng="73.417940841111" status="Published" collection_date_start="2019-04-20" collection_date_end="2019-04-20" collectors="Maldives Heritage Survey" collectorsURL="https://maldivesheritage.oxcis.ac.uk/" /><marker doi="3csj-ff50" country="Maldives" project_name="Fuvahmulah Havitta 13 ( GNI-HAD-6-S13 )" lat="-0.280738894706" lng="73.417806082733" status="Published" collection_date_start="2019-04-20" collection_date_end="2019-04-20" collectors="Maldives Heritage Survey" collectorsURL="https://maldivesheritage.oxcis.ac.uk/" /><marker doi="3e9p-t207" country="United States of America" project_name="New York State Pavilion" lat="40.743517" lng="-73.844483" status="Published" collection_date_start="2014-06-01" collection_date_end="2014-06-05" collectors="CyArk , University of Central Florida's Institute of Simulation &amp; Training , Langan Engineering &amp; Environmental Services" collectorsURL="https://cyark.org/ , https://www.ist.ucf.edu/ , https://www.langan.com/" /><marker doi="3h51-9f76" country="United States of America" project_name="Topaz National Historic Landmark" lat="39.4112281" lng="-112.77435" status="Published" collection_date_start="2011-08-29" collection_date_end="2011-09-03" collectors="CyArk , CU Denver" collectorsURL="https://cyark.org/ , http://www.ucdenver.edu/" /><marker doi="3j4d-7z47" country="Maldives" project_name="Hoadhadho Local  House ( GNI-HAD-5)" lat="-0.285541699131" lng="73.421605417122" status="Published" collection_date_start="2018-11-17" collection_date_end="2018-11-17" collectors="Maldives Heritage Survey" collectorsURL="https://maldivesheritage.oxcis.ac.uk/" /><marker doi="3rcb-4j52" country="South Africa" project_name="Corbelled Houses of Karoo - Ystervarkspoort" lat="-31.40773" lng="22.45239" status="Published" collection_date_start="0000-00-00" collection_date_end="0000-00-00" collectors="The African Conservation Trust , University of KwaZulu-Natal" collectorsURL="https://projectafrica.com/ , https://www.ukzn.ac.za/" /><marker doi="3spy-ax88" country="Maldives" project_name="Bodugedhara Miskiyy  (GNI-MAD-1 )" lat="-0.294866066644" lng="73.422673153252" status="Published" collection_date_start="2018-10-10" collection_date_end="2018-10-10" collectors="Maldives Heritage Survey" collectorsURL="https://maldivesheritage.oxcis.ac.uk/" /><marker doi="403p-tb11" country="United States of America" project_name="Jack London Wolf House" lat="38.351116" lng="-122.537283" status="Published" collection_date_start="0000-00-00" collection_date_end="0000-00-00" collectors="Locus Construction Services , CyArk" collectorsURL="http://locusco.com/ , https://cyark.org/" /><marker doi="42w2-ga96" country="Maldives" project_name="Kedeyre Miskiyy (GNI-MAD-2 )" lat="M 0324941" lng="9967726" status="Published" collection_date_start="2018-10-23" collection_date_end="2018-10-23" collectors="Maldives Heritage Survey" collectorsURL="https://maldivesheritage.oxcis.ac.uk/" /><marker doi="43dt-jv84" country="Antarctica" project_name="Antarctic Expedition Huts - Shackletons Hut" lat="-77.552967" lng="166.168250" status="Published" collection_date_start="2011-01-01" collection_date_end="2011-01-13" collectors="Geometria" collectorsURL="http://www.geometria.co.nz/" /><marker doi="46qj-yt38" country="Maldives" project_name="Baarashu Hukuru Miskiyy, Baarah (HAF-BRH-1)" lat="6.8164032792" lng="73.2119547424" status="Published" collection_date_start="2020-01-27" collection_date_end="2020-01-27" collectors="Maldives Heritage Survey" collectorsURL="https://maldivesheritage.oxcis.ac.uk/" /><marker doi="4cjy-gj54" country="United Kingdom" project_name="Brookwood American Cemetery" lat="51.301766" lng="-0.640033" status="Upcoming" collection_date_start="2016-07-25" collection_date_end="2016-07-26" collectors="CyArk" collectorsURL="https://cyark.org/" /><marker doi="4cxq-gg42" country="United States of America" project_name="Mision San Francisco Solano de Sonoma" lat="38.293749" lng="-122.456065" status="Published" collection_date_start="2013-08-29" collection_date_end="2013-08-30" collectors="CyArk" collectorsURL="https://cyark.org/" /><marker doi="4d56-gj21" country="Antarctica" project_name="Antarctic Expedition Huts - Scotts Discovery" lat="-77.845833" lng="166.641712" status="Published" collection_date_start="2011-01-01" collection_date_end="2011-01-13" collectors="Geometria" collectorsURL="http://www.geometria.co.nz/" /><marker doi="4e4h-kz71" country="United States of America" project_name="Russell Cave National Monument - Cave shelter site" lat="34.976687" lng="-85.810063" status="Upcoming" collection_date_start="2016-03-28" collection_date_end="2016-03-30" collectors="Digital Heritage and Humanities Center, University of South Florida Libraries
" collectorsURL="https://www.lib.usf.edu/dhhc/" /><marker doi="4h29-7e80" country="Peru" project_name="Palacio Tschudi - Chan Chan" lat=" -8.109948" lng="-79.074847" status="Published" collection_date_start="2019-08-12" collection_date_end="2019-08-22" collectors="CyArk" collectorsURL="https://cyark.org/" /><marker doi="4jw1-j002" country="Cabo Verde" project_name="Cidade Velha - Cathedral" lat="14.913589" lng="-23.603852" status="Published" collection_date_start="2015-03-01" collection_date_end="2015-03-06" collectors="CyArk" collectorsURL="https://cyark.org/" /><marker doi="4qq4-8d77" country="Nigeria" project_name="Ilédi Ontòtòo" lat="7.75708" lng="4.549099" status="Published" collection_date_start="2019-09-19" collection_date_end="2019-09-24" collectors="CyArk , Ímísí3D" collectorsURL="https://cyark.org/ , http://imisi3d.com/   " /><marker doi="4ttv-q296" country="United States of America" project_name="Chumash Painted Cave" lat="34.504273" lng="-119.787779" status="Published" collection_date_start="0000-00-00" collection_date_end="0000-00-00" collectors="CyArk" collectorsURL="https://cyark.org/" /><marker doi="4wxv-ee80" country="Turkey" project_name="Church of the Redeemer - Ani" lat="40.507183" lng="43.576641" status="Published" collection_date_start="2011-08-07" collection_date_end="2011-08-15" collectors="Solvotek" collectorsURL="http://www.solvo-tek.com/" /><marker doi="4z5b-vz23" country="Vietnam" project_name="Complex of Hué Monuments - An Dinh Palace" lat="16.456615" lng="107.598306" status="Published" collection_date_start="2018-06-22" collection_date_end="2018-06-28" collectors="CyArk" collectorsURL="https://cyark.org/" /><marker doi="5b6m-ap62" country="Tanzania" project_name="Gerezani - Kilwa Kisiwani" lat=" -8.957825" lng=" 39.499409" status="Published" collection_date_start="2018-12-11" collection_date_end="2018-12-19" collectors="CyArk" collectorsURL="https://cyark.org/" /><marker doi="5sts-9k88" country="United States of America" project_name="Sugar Mills of Florida - the Elliott Sugar Mill Site" lat="28.8039306" lng="-80.831802" status="Upcoming" collection_date_start="2010-08-11" collection_date_end="2010-08-16" collectors="Digital Heritage and Humanities Center, University of South Florida Libraries
" collectorsURL="https://www.lib.usf.edu/dhhc/" /><marker doi="5vwp-yh91" country="United States of America" project_name="Spruce Tree House - Mesa Verde National Park" lat="37.183832" lng="-108.487011" status="Published" collection_date_start="0000-00-00" collection_date_end="0000-00-00" collectors="CyArk , Texas Tech University , University of California at Berkeley , INSIGHT" collectorsURL="https://cyark.org/ , https://www.ttu.edu/ , https://www.berkeley.edu/ , http://insightdigital.org/" /><marker doi="5xqf-k959" country="Mexico" project_name="Mexico City National Cemetery" lat="19.441598" lng="-99.16644" status="Published" collection_date_start="2016-03-07" collection_date_end="2016-03-10" collectors="CyArk" collectorsURL="https://cyark.org/" /><marker doi="5z6h-qk16" country="Pakistan" project_name="Masjid Wazir Khan" lat="31.583203" lng="74.323615" status="Published" collection_date_start="2015-06-11" collection_date_end="2015-06-15" collectors="CyArk , Lahore University of Management Sciences" collectorsURL="https://cyark.org/ , http://heritage360.pk/" /><marker doi="65te-xx92" country="United States of America" project_name="Stonewall National Monument" lat=" 40.733587" lng="-74.002327" status="Published" collection_date_start="2019-03-04" collection_date_end="2019-03-09" collectors="CyArk" collectorsURL="https://cyark.org/" /><marker doi="67nh-xc30" country="France" project_name="St. Mihiel American Cemetery" lat="48.956858" lng="5.852339" status="Upcoming" collection_date_start="2016-08-06" collection_date_end="2016-08-07" collectors="CyArk" collectorsURL="https://cyark.org/" /><marker doi="6n10-bt34" country="United States of America" project_name="Fort Brown" lat="25.890356" lng="-97.492322" status="Published" collection_date_start="2013-08-19" collection_date_end="2013-09-04" collectors="CyArk" collectorsURL="https://cyark.org/" /><marker doi="6pyp-hk82" country="United States of America" project_name="Mission Dolores" lat="37.764211" lng="-122.426628" status="Published" collection_date_start="2012-07-11" collection_date_end="2012-07-12" collectors="CyArk" collectorsURL="https://cyark.org/" /><marker doi="6spz-ee90" country="Italy" project_name="Ancient Stabiae - Villa Arianna" lat="40.6996879" lng="14.4920606" status="Published" collection_date_start="2013-06-11" collection_date_end="2013-06-17" collectors="CyArk , University of Ferrara" collectorsURL="https://cyark.org/ , http://www.diaprem.unife.it/" /><marker doi="708h-ss96" country="Guatemala" project_name="Tikal" lat="17.2220783" lng="-89.623710" status="Published" collection_date_start="2005-11-16" collection_date_end="2005-11-25" collectors="University of California, Berkeley , xRez Studio" collectorsURL="https://www.berkeley.edu/ , http://www.xrez.com/" /><marker doi="73pg-r549" country="United States of America" project_name="San Antonio Missions - Aqueduct" lat="29.3324203" lng="-98.4618535" status="Published" collection_date_start="2010-01-20" collection_date_end="2010-02-02" collectors="CyArk , Critigen" collectorsURL="https://cyark.org/ , http://www.critigen.com" /><marker doi="74v4-k412" country="Bangladesh" project_name="Chunakhola - Mosque City of Bagerhat" lat=" 22.678556" lng=" 89.732105" status="Published" collection_date_start="2019-04-23" collection_date_end="2019-05-03" collectors="CyArk" collectorsURL="https://cyark.org/" /><marker doi="75m2-df95" country="United States of America" project_name="Sugar Mills of Florida - the Gamble Plantation Site" lat="27.5303767" lng="-82.527871" status="Upcoming" collection_date_start="2017-07-30" collection_date_end="2017-07-30" collectors="Digital Heritage and Humanities Center, University of South Florida Libraries
" collectorsURL="https://www.lib.usf.edu/dhhc/" /><marker doi="773d-jn62" country="United States of America" project_name="Natchez National Historical Park - Melrose" lat="31.543274" lng="-91.382967" status="Published" collection_date_start="2014-09-08" collection_date_end="2014-09-12" collectors="CyArk , Trimble" collectorsURL="https://cyark.org/ , https://www.trimble.com/" /><marker doi="7bzx-v340" country="Jordan" project_name="Madaba - Burnt Palace" lat="31.7158287" lng="35.7959833" status="Published" collection_date_start="2020-12-05" collection_date_end="2020-12-09" collectors="American University of Madaba" collectorsURL="https://aum.edu.jo/" /><marker doi="7tbq-c529" country="Maldives" project_name="Hoarafushi Old Cemetery (HAF-HRF-1)" lat="6.9814767855" lng="72.8962638146" status="Published" collection_date_start="2019-04-11" collection_date_end="2019-04-11" collectors="Maldives Heritage Survey" collectorsURL="https://maldivesheritage.oxcis.ac.uk/" /><marker doi="7y70-rh48" country="Armenia" project_name="Monastery of Geghard" lat="40.1402931" lng="44.8178672" status="Published" collection_date_start="2015-01-09" collection_date_end="2015-01-11" collectors="CyArk , TUMO Center for Creative Technologies" collectorsURL="https://cyark.org/ , https://tumo.org/en/" /><marker doi="88jt-yz94" country="Italy" project_name="Pompeii" lat="40.7500610" lng="14.4850435" status="Published" collection_date_start="2003-07-22" collection_date_end="2003-07-30" collectors="DIAPReM University of Ferrara" collectorsURL="http://www.diaprem.unife.it/" /><marker doi="88y7-fc79" country="Maldives" project_name="Utheemu Gan'davaru (HAF-UTM-2)" lat="6.8368280447862" lng="73.112362510571" status="Published" collection_date_start="2019-02-07" collection_date_end="2019-02-09" collectors="Maldives Heritage Survey" collectorsURL="https://maldivesheritage.oxcis.ac.uk/" /><marker doi="8f5j-dq84" country="Maldives" project_name="Fuvahmulah Havitta (GNI-HAD-6 )" lat="-0.280901745034" lng="73.418255231163" status="Published" collection_date_start="2019-04-20" collection_date_end="2019-04-24" collectors="Maldives Heritage Survey" collectorsURL="https://maldivesheritage.oxcis.ac.uk/" /><marker doi="8j7j-6m43" country="Mexico" project_name="Mexico City Metropolitan Cathedral" lat="19.434442" lng="-99.133065" status="Published" collection_date_start="2018-09-19" collection_date_end="2018-09-29" collectors="CyArk" collectorsURL="https://cyark.org/" /><marker doi="8m5e-8s49" country="Spain" project_name="Cloister of Cathedral of St. Mary of La Seu Vella" lat="41.617778" lng="0.626667" status="Published" collection_date_start="2018-05-28" collection_date_end="2018-05-28" collectors="Calidos" collectorsURL="http://www.calidos.cat/" /><marker doi="8qrh-d712" country="United States of America" project_name="El Morro National Monument" lat="35.040513" lng="-108.351426" status="Published" collection_date_start="2016-02-04" collection_date_end="2016-02-10" collectors="Cultural Heritage Imaging" collectorsURL="http://culturalheritageimaging.org/" /><marker doi="8vev-m427" country="Maldives" project_name="Baa Miskiyy (KFA-DFS-1 )" lat="4.4429378360402" lng="73.714291676104" status="Published" collection_date_start="2019-03-03" collection_date_end="2019-03-05" collectors="Maldives Heritage Survey" collectorsURL="https://maldivesheritage.oxcis.ac.uk/" /><marker doi="90yg-1054" country="United States of America" project_name="Lincoln Memorial" lat="38.8892173" lng="-77.050186" status="Upcoming" collection_date_start="2014-04-28" collection_date_end="2014-05-01" collectors="CyArk , DJS Associates" collectorsURL="https://cyark.org/ , http://www.djsscans.com/" /><marker doi="91mk-xf60" country="France" project_name="Meuse-Argonne American Cemetery" lat="49.330544" lng="5.09392" status="Upcoming" collection_date_start="2016-08-08" collection_date_end="2016-08-09" collectors="CyArk" collectorsURL="https://cyark.org/" /><marker doi="939f-ap38" country="United States of America" project_name="Independence Rock" lat="42.49288" lng="-107.131278" status="Published" collection_date_start="0000-00-00" collection_date_end="0000-00-00" collectors="N/A" collectorsURL="N/A" /><marker doi="9cpm-7h71" country="Maldives" project_name="Kuda Miskiiy, Gaafaru (KFA-GFR-3)" lat="4.7363369910239" lng="73.501461609465" status="Published" collection_date_start="2019-02-19" collection_date_end="2019-02-19" collectors="Maldives Heritage Survey" collectorsURL="https://maldivesheritage.oxcis.ac.uk/" /><marker doi="9d0a-as76" country="Belgium" project_name="Flanders Field American Cemetery" lat="50.873692" lng="3.453569" status="Upcoming" collection_date_start="2016-08-12" collection_date_end="2016-08-12" collectors="CyArk" collectorsURL="https://cyark.org/" /><marker doi="9q3d-b036" country="Pakistan" project_name="Jaulian" lat="33.7649002" lng="72.8749771" status="Published" collection_date_start="2015-11-16" collection_date_end="2015-11-22" collectors="Lahore University of Management Sciences" collectorsURL="http://heritage360.pk/" /><marker doi="a6s9-pz65" country="Maldives" project_name="Funadhoo Mosque  ( GNI-FUD-1 )" lat="-0.303585117" lng="73.42791825" status="Published" collection_date_start="2018-10-16" collection_date_end="2018-10-16" collectors="Maldives Heritage Survey" collectorsURL="https://maldivesheritage.oxcis.ac.uk/" /><marker doi="a80z-ax56" country="Italy" project_name="La Verna" lat="43.707116" lng="11.930771" status="Published" collection_date_start="2014-04-09" collection_date_end="2014-04-11" collectors="CyArk" collectorsURL="https://cyark.org/" /><marker doi="akm7-ma43" country="Maldives" project_name="Maaloodhuge, Baarah (HAF-BRH-3)" lat="6.8188923903" lng="73.2102267687" status="Published" collection_date_start="2020-01-29" collection_date_end="2020-01-29" collectors="Maldives Heritage Survey" collectorsURL="https://maldivesheritage.oxcis.ac.uk/" /><marker doi="anvt-a528" country="Mexico" project_name="Teotihuacán - Pyramid of Quetzalcoatl" lat="19.69077492" lng="-98.842605" status="Published" collection_date_start="2009-12-17" collection_date_end="2009-12-21" collectors="CyArk , Leica Geosystems" collectorsURL="https://cyark.org/ , https://leica-geosystems.com/" /><marker doi="armv-kz44" country="United States of America" project_name="Sugar Mills of Florida - the Dummett Sugar Mill Ruin" lat="29.3552391" lng="-81.106418" status="Upcoming" collection_date_start="2009-11-21" collection_date_end="2009-11-22" collectors="Digital Heritage and Humanities Center, University of South Florida Libraries
" collectorsURL="https://www.lib.usf.edu/dhhc/" /><marker doi="axyh-ft88" country="South Africa" project_name="Corbelled Houses of Karoo - Carnarvon" lat="30.96993" lng="22.12949" status="Published" collection_date_start="0000-00-00" collection_date_end="0000-00-00" collectors="The African Conservation Trust , University of KwaZulu-Natal" collectorsURL="https://projectafrica.com/ , https://www.ukzn.ac.za/" /><marker doi="az9d-mx47" country="United States of America" project_name="Mesa Verde National Park- Balcony House" lat=" 37.161509" lng="-108.464460" status="Published" collection_date_start="2017-02-22" collection_date_end="2017-02-25" collectors="CyArk" collectorsURL="https://cyark.org/" /><marker doi="b66h-p364" country="United States of America" project_name="Tule Lake National Monument" lat="41.8866958" lng="-121.37408" status="Published" collection_date_start="2011-11-22" collection_date_end="2011-11-27" collectors="CyArk , CU Denver , Josh Partee" collectorsURL="https://cyark.org/ , http://www.ucdenver.edu/ , https://www.joshpartee.com/" /><marker doi="bb7q-rn71" country="Maldives" project_name="Kuda Ziyaarat (KFA-HMF-1 )" lat="4.3096624034306" lng="73.570168215182" status="Published" collection_date_start="2019-03-19" collection_date_end="2019-03-20" collectors="Maldives Heritage Survey" collectorsURL="https://maldivesheritage.oxcis.ac.uk/" /><marker doi="bezr-xd16" country="Maldives" project_name="Dhonbandaara Miskiiy - Hura (KFA-HRA-1 )" lat="4.3318677035801" lng="73.600371801177" status="Published" collection_date_start="2019-03-20" collection_date_end="2019-03-22" collectors="Maldives Heritage Survey" collectorsURL="https://maldivesheritage.oxcis.ac.uk/" /><marker doi="bfzm-v295" country="Tanzania" project_name="Great Mosque - Kilwa Kisiwani" lat="-8.959099" lng="39.498286" status="Published" collection_date_start="2018-12-11" collection_date_end="2018-12-19" collectors="CyArk" collectorsURL="https://cyark.org/" /><marker doi="bg71-j789" country="Scotland" project_name="Heart of Neolithic Orkney - Skara Brae" lat="59.048712" lng="-3.341800" status="Published" collection_date_start="2010-08-01" collection_date_end="2010-08-31" collectors="Historic Environment Scotland , CyArk , School of Simulation and Visualisation" collectorsURL="https://www.historicenvironment.scot/ , https://cyark.org/ , http://www.gsa.ac.uk/research/research-centres/school-of-simulation-and-visualisation/" /><marker doi="bpy9-hd05" country="United States of America" project_name="Junipero Serra Cenotaph" lat="36.542916" lng="-121.919933" status="Published" collection_date_start="2015-07-21" collection_date_end="2015-07-21" collectors="CyArk" collectorsURL="https://cyark.org/" /><marker doi="cb63-bs37" country="Maldives" project_name="Anhenunge' Miskiyy (KFA-KSD-5)" lat="4.9594713314026" lng="73.462854221428" status="Published" collection_date_start="2019-02-11" collection_date_end="2019-02-11" collectors="Maldives Heritage Survey" collectorsURL="https://maldivesheritage.oxcis.ac.uk/" /><marker doi="cbtd-5b18" country="United States of America" project_name="Square Tower House - Mesa Verde National Park" lat="37.166195" lng="-108.491617" status="Published" collection_date_start="0000-00-00" collection_date_end="0000-00-00" collectors="CyArk , Texas Tech University , University of California at Berkeley , INSIGHT" collectorsURL="https://cyark.org/ , https://www.ttu.edu/ , https://www.berkeley.edu/ , http://insightdigital.org/" /><marker doi="ck42-e122" country="Somaliland" project_name="Rock Art Sites of Somaliland - Dhagah Kureh" lat="9.65236568" lng="44.1657753" status="Published" collection_date_start="2013-09-10" collection_date_end="2013-09-15" collectors="CyArk" collectorsURL="https://cyark.org/" /><marker doi="csrk-x586" country="Maldives" project_name="Nafeesatha Mosque (KFA-KSD-6 )" lat="4.958935885" lng="73.46204392" status="Published" collection_date_start="2019-02-11" collection_date_end="2019-02-11" collectors="Maldives Heritage Survey" collectorsURL="https://maldivesheritage.oxcis.ac.uk/" /><marker doi="cw7a-wp35" country="Maldives" project_name="Kuruhinna Tharagaandu (KFA-KSD-1)" lat="N 0329579" lng="0548048" status="Published" collection_date_start="2019-02-05" collection_date_end="2019-02-09" collectors="Maldives Heritage Survey" collectorsURL="https://maldivesheritage.oxcis.ac.uk/" /><marker doi="d51v-fq77" country="Germany" project_name="Brandenburg Gate" lat="52.5162506" lng="13.3777055" status="Published" collection_date_start="2015-08-23" collection_date_end="2015-08-26" collectors="CyArk , Institute for Photogrammetry" collectorsURL="https://cyark.org/ , http://www.ifp.uni-stuttgart.de/index.en.html" /><marker doi="d785-9q97" country="Maldives" project_name="Kuruhinna Tharagaandu 1&amp;3  (KFA-KSD-1&amp;3 )" lat="4.9567585965788" lng="73.462977716133" status="Published" collection_date_start="2019-02-09" collection_date_end="2019-02-09" collectors="Maldives Heritage Survey" collectorsURL="https://maldivesheritage.oxcis.ac.uk/" /><marker doi="d998-rd62" country="Greece" project_name="Kastro Apalirou" lat="37.011576" lng="25.452661" status="Published" collection_date_start="0000-00-00" collection_date_end="0000-00-00" collectors="CyArk" collectorsURL="https://cyark.org/" /><marker doi="dbg6-x966" country="Italy" project_name="Piazza del Duomo - Pisa" lat="43.7225875" lng="10.3965826" status="Published" collection_date_start="2006-07-03" collection_date_end="2006-07-12" collectors="DIAPReM University of Ferrara" collectorsURL="http://www.diaprem.unife.it/" /><marker doi="dh5p-q964" country="France" project_name="Somme American Cemetery" lat="49.985465" lng="3.215966" status="Upcoming" collection_date_start="2016-08-06" collection_date_end="2016-08-07" collectors="CyArk" collectorsURL="https://cyark.org/" /><marker doi="dhtq-qb60" country="Syria" project_name="Hammam Nur al-Din" lat="33.50963" lng="36.306532" status="Published" collection_date_start="2017-08-14" collection_date_end="2017-08-17" collectors="Directorate General of Antiquities and Museums" collectorsURL="http://www.dgam.gov.sy/" /><marker doi="e22j-4c22" country="United States of America" project_name="Fire Temple - Mesa Verde National Park" lat="37.165349" lng="-108.479024" status="Published" collection_date_start="0000-00-00" collection_date_end="0000-00-00" collectors="CyArk , Texas Tech University , University of California at Berkeley , INSIGHT" collectorsURL="https://cyark.org/ , https://www.ttu.edu/ , https://www.berkeley.edu/ , http://insightdigital.org/" /><marker doi="edsm-3w14" country="Mexico" project_name="Monte Alban - System IV" lat="17.043449" lng="-96.769128" status="Published" collection_date_start="2008-10-07" collection_date_end="2008-10-12" collectors="CyArk , Leica Geosystems" collectorsURL="https://cyark.org/ , https://leica-geosystems.com/" /><marker doi="eh15-4094" country="Spain" project_name="Els Vilars Fortess" lat="41.568333" lng="0.953889" status="Published" collection_date_start="2019-12-18" collection_date_end="2019-12-18" collectors="Calidos" collectorsURL="http://www.calidos.cat/" /><marker doi="et81-7282" country="United States of America" project_name="Cape Canaveral Space History  - Intercontinental ballistic missile sites at Launch Complexes 1-4" lat="28.465399" lng="-80.535028" status="Upcoming" collection_date_start="" collection_date_end="" collectors="Digital Heritage and Humanities Center, University of South Florida Libraries
" collectorsURL="https://www.lib.usf.edu/dhhc/" /><marker doi="ewcf-wv74" country="Maldives" project_name="Muladhoo Old Cemetery (HAF-MLD-1)" lat="7.0095654656" lng="72.9979313382" status="Published" collection_date_start="2019-12-11" collection_date_end="2019-12-11" collectors="Maldives Heritage Survey" collectorsURL="https://maldivesheritage.oxcis.ac.uk/" /><marker doi="f0cj-er93" country="Egypt" project_name="Bab al-Barqiyya" lat="30.043314" lng="31.265156" status="Published" collection_date_start="2006-09-25" collection_date_end="2006-09-29" collectors="Development of Integrated Automatic Procedures for Restoration Of Monuments (DIAPREM)" collectorsURL="http://www.diaprem.unife.it/" /><marker doi="fexy-pm96" country="Antarctica" project_name="Antarctic Expedition Huts - Scotts Terra Nova Hut" lat="-77.638951" lng="166.414613" status="Published" collection_date_start="2011-01-01" collection_date_end="2011-01-13" collectors="Geometria" collectorsURL="http://www.geometria.co.nz/" /><marker doi="fht9-8612" country="Maldives" project_name="Baa Miskiyy/Hukuru Miskiyy, Dhiffushi (KFA-DFS-1)" lat="4.4429378357" lng="73.7142916761" status="Published" collection_date_start="2019-03-05" collection_date_end="2019-03-05" collectors="Maldives Heritage Survey" collectorsURL="https://maldivesheritage.oxcis.ac.uk/" /><marker doi="fmkr-g474" country="United States of America" project_name="SS Candace" lat="37.789737" lng="-122.391061" status="Published" collection_date_start="2012-05-04" collection_date_end="2012-05-04" collectors="CyArk" collectorsURL="https://cyark.org/" /><marker doi="gkca-yk17" country="United States of America" project_name="Mission San Carlos Borromeo del Rio Carmelo" lat="36.542886" lng="-121.920327" status="Published" collection_date_start="2012-04-19" collection_date_end="2012-04-21" collectors="CyArk" collectorsURL="https://cyark.org/" /><marker doi="gke9-zf09" country="United States of America" project_name="San Antonio Missions - Mission  Espada" lat="29.3182404" lng="-98.4534105" status="Published" collection_date_start="2010-01-20" collection_date_end="2010-02-02" collectors="Critigen , CyArk" collectorsURL="http://www.critigen.com , https://cyark.org/" /><marker doi="gsx5-jf85" country="Myanmar" project_name="Bagan - Eim Ya Kyaung (Post Earthquake)" lat="21.1787529" lng="94.8747787" status="Upcoming" collection_date_start="2017-04-20" collection_date_end="2017-04-28" collectors="CyArk" collectorsURL="https://cyark.org/" /><marker doi="gtv8-ax05" country="United States of America" project_name="Mission San Luis Rey" lat="33.232361" lng="-117.319444" status="Published" collection_date_start="2012-08-28" collection_date_end="2012-08-31" collectors="CyArk , Center of Interdisciplinary Science for Art, Architecture and Archaeology (CISA3)" collectorsURL="https://cyark.org/ , http://cisa3.calit2.net/cisa3/" /><marker doi="h3r7-t916" country="Greece" project_name="Ancient Corinth " lat="37.9057579" lng="22.8805770" status="Published" collection_date_start="2015-06-13" collection_date_end="2015-06-17" collectors="The American School of Classical Studies at Athens , CyArk" collectorsURL="http://www.ascsa.edu.gr , https://cyark.org/" /><marker doi="h45n-ep48" country="Italy" project_name="Hypogeum of the Volumnis" lat="43.089339" lng="12.389167" status="Published" collection_date_start="2004-10-27" collection_date_end="2004-10-28" collectors="University of Ferrara" collectorsURL="http://www.diaprem.unife.it/" /><marker doi="hegb-zz35" country="United States of America" project_name="Ahu'ena Heiau" lat="19.638911" lng="-155.997451" status="Published" collection_date_start="2010-11-29" collection_date_end="2010-12-04" collectors="Gauge Point Calibration , CyArk" collectorsURL="http://www.gaugepoint.com/ , https://cyark.org/" /><marker doi="hevx-jf76" country="Nigeria" project_name="Iyá Moòpó" lat="7.754343" lng="4.548966" status="Published" collection_date_start="2019-09-19" collection_date_end="2019-09-24" collectors="CyArk , Ímísí3D" collectorsURL="https://cyark.org/ , http://imisi3d.com/   " /><marker doi="hk15-b859" country="France" project_name="Normandy American Cemetery" lat="49.360212" lng="-0.857263" status="Upcoming" collection_date_start="2018-08-26" collection_date_end="2018-09-03" collectors="CyArk" collectorsURL="https://cyark.org/" /><marker doi="j352-kn54" country="Cabo Verde" project_name="Cidade Velha - Fort" lat="14.916154" lng="-23.601906" status="Published" collection_date_start="2015-03-01" collection_date_end="2015-03-06" collectors="CyArk" collectorsURL="https://cyark.org/" /><marker doi="j4g0-ek82" country="Syria" project_name="Ananias Chapel" lat="33.511518" lng="36.31739" status="Published" collection_date_start="2017-08-09" collection_date_end="2017-08-13" collectors="Directorate General of Antiquities and Museums" collectorsURL="http://www.dgam.gov.sy/" /><marker doi="jc6h-e678" country="Maldives" project_name="Fuvahmulah Havitta 2 (GNI-HAD-6-S2)" lat="-0.281073710282" lng="73.419225416289" status="Published" collection_date_start="2019-04-20" collection_date_end="2019-04-20" collectors="Maldives Heritage Survey" collectorsURL="https://maldivesheritage.oxcis.ac.uk/" /><marker doi="jgf3-jm06" country="Peru" project_name="Palacio Rivero - Chan Chan Archaeological Zone" lat="-8.112249" lng="-79.077847" status="Published" collection_date_start="2019-08-12" collection_date_end="2019-08-22" collectors="CyArk" collectorsURL="https://cyark.org/" /><marker doi="jndy-6p72" country="Panama" project_name="Fort San Lorenzo" lat="9.32222175" lng="-80.002777" status="Published" collection_date_start="2013-03-27" collection_date_end="2013-03-27" collectors="Summit Engineering and Design" collectorsURL="http://www.sead.com/" /><marker doi="jwsh-x267" country="United States of America" project_name="Akers Mill" lat="33.889828" lng="-84.442816" status="Published" collection_date_start="2013-08-07" collection_date_end="2013-08-12" collectors="CyArk" collectorsURL="https://cyark.org/" /><marker doi="kbgp-9c03" country="United States of America" project_name="Cedar Creek Grist Mill" lat="45.93842" lng="-122.583254" status="Published" collection_date_start="2015-05-07" collection_date_end="2015-05-12" collectors="Jensen Hughes (formerly Case Forensics Corporation)" collectorsURL="https://www.jensenhughes.com/" /><marker doi="kdan-hk83" country="Maldives" project_name="Matheerah Ziyaarat Complex (HAF-MTR-1)" lat="	7.027576925560" lng="72.818324560829" status="Published" collection_date_start="2019-11-16" collection_date_end="2019-11-16" collectors="Maldives Heritage Survey" collectorsURL="https://maldivesheritage.oxcis.ac.uk/" /><marker doi="kxsh-xw74" country="Japan" project_name="Sogi Power Plant" lat="32.010643" lng="130.563125" status="Published" collection_date_start="2015-04-26" collection_date_end="2015-04-30" collectors="Topcon , CyArk" collectorsURL="https://www.topconpositioning.com , https://cyark.org/" /><marker doi="kz88-9d21" country="United States of America" project_name="Apollo 1 - Grissom White and Chaffee Memorial at Launch Complex  34" lat="28.521811
" lng="-80.561129" status="Published" collection_date_start="2015-08-19" collection_date_end="2019-04-11" collectors="Digital Heritage and Humanities Center, University of South Florida Libraries
 , Joint Airborne Lidar Bathymetry Technical Center of eXpertise (JALBTCX)" collectorsURL="https://www.lib.usf.edu/dhhc/ , https://www.sam.usace.army.mil/Missions/Spatial-Data-Branch/JALBTCX/
" /><marker doi="m1sm-3k02" country="South Africa" project_name="Corbelled Houses of Karoo - Swaelkrans" lat="-31.48073" lng="22.22914" status="Published" collection_date_start="0000-00-00" collection_date_end="0000-00-00" collectors="The African Conservation Trust , University of KwaZulu-Natal" collectorsURL="https://projectafrica.com/ , https://www.ukzn.ac.za/" /><marker doi="mepm-ww89" country="Italy" project_name="Abbey of Pomposa" lat="44.831898" lng="12.175772" status="Published" collection_date_start="0000-00-00" collection_date_end="0000-00-00" collectors="N/A" collectorsURL="N/A" /><marker doi="mn3w-xc18" country="Myanmar" project_name="Bagan - Eim Ya Kyaung (Pre Earthquake)" lat="21.1787529" lng="94.8747787" status="Upcoming" collection_date_start="2016-05-24" collection_date_end="2016-05-27" collectors="CyArk , Carleton University" collectorsURL="https://cyark.org/ , https://carleton.ca/cee/" /><marker doi="mpkc-8q07" country="United States of America" project_name="Thomas Jefferson Memorial" lat="38.881381" lng="-77.036454" status="Upcoming" collection_date_start="2018-07-09" collection_date_end="2018-07-13" collectors="CyArk" collectorsURL="https://cyark.org/" /><marker doi="mv5j-ef62" country="Jordan" project_name="Madaba - Church of the Virgin Mary" lat="31.7160815" lng="35.7932763" status="Published" collection_date_start="2020-12-05" collection_date_end="2020-12-09" collectors="American University of Madaba" collectorsURL="https://aum.edu.jo/" /><marker doi="n06n-qa49" country="Vietnam" project_name="Complex of Hué Monuments - Tomb of Tu Duc" lat=" 16.433166" lng="107.565391" status="Published" collection_date_start="2018-06-22" collection_date_end="2018-06-28" collectors="CyArk" collectorsURL="https://cyark.org/" /><marker doi="n0cw-2k64" country="Jordan" project_name="Madaba - Church of St. George" lat="31.7177122" lng="35.7941993" status="Published" collection_date_start="2020-12-05" collection_date_end="2020-12-09" collectors="American University of Madaba" collectorsURL="https://aum.edu.jo/" /><marker doi="n8mh-mm15" country="United States of America" project_name="Alvord Lake Bridge" lat="37.769" lng="-122.454923" status="Published" collection_date_start="0000-00-00" collection_date_end="0000-00-00" collectors="Scott Page Design" collectorsURL="https://www.scottpagedesign.com/" /><marker doi="naf7-v426" country="Greece" project_name="Church of Agios Mamas" lat="37.060336" lng="25.428273" status="Published" collection_date_start="0000-00-00" collection_date_end="0000-00-00" collectors="CyArk" collectorsURL="https://cyark.org/" /><marker doi="nkv2-bn91" country="Syria" project_name="Bimaristan Nur al-Din" lat="33.510206" lng="36.303519" status="Published" collection_date_start="2017-08-17" collection_date_end="2017-08-20" collectors="Directorate General of Antiquities and Museums" collectorsURL="http://www.dgam.gov.sy/" /><marker doi="p14w-cd36" country="Republic of North Macedonia" project_name="Church of St. Sophia" lat="41.112089" lng="20.794114" status="Published" collection_date_start="2018-10-25" collection_date_end="2018-10-29" collectors="CyArk" collectorsURL="https://cyark.org/" /><marker doi="p1ek-4k68" country="Cabo Verde" project_name="Cidade Velha" lat="14.9150581" lng="-23.605064" status="Published" collection_date_start="2015-03-01" collection_date_end="2015-03-06" collectors="CyArk" collectorsURL="https://cyark.org/" /><marker doi="p84w-dm84" country="Maldives" project_name="Ali Thakurufaanu Ziyaarat, Thakandhoo (HAF-TKD-2)" lat="6.8438801384" lng="72.9939899221" status="Published" collection_date_start="2019-12-02" collection_date_end="2019-12-02" collectors="Maldives Heritage Survey" collectorsURL="https://maldivesheritage.oxcis.ac.uk/" /><marker doi="pb6n-zc53" country="Pakistan" project_name="Jamia Masjid Khudabad" lat="26.646899" lng="67.73977" status="Published" collection_date_start="2015-08-10" collection_date_end="2015-08-14" collectors="Lahore University of Management Sciences" collectorsURL="http://heritage360.pk/" /><marker doi="pcpm-h210" country="Scotland" project_name="Heart of Neolithic Orkney - The Ring of Brodgar" lat="59.001499" lng="-3.229778" status="Upcoming" collection_date_start="2010-08-01" collection_date_end="2010-08-31" collectors="Historic Environment Scotland , CyArk , School of Simulation and Visualisation" collectorsURL="https://www.historicenvironment.scot/ , https://cyark.org/ , http://www.gsa.ac.uk/research/research-centres/school-of-simulation-and-visualisation/" /><marker doi="prmc-an45" country="United States of America" project_name="Jackson Rooming House - A Jim Crow Era Boarding House in the South" lat="27.9521987" lng="-82.4520423" status="Upcoming" collection_date_start="2019-02-16" collection_date_end="2019-02-16" collectors="Digital Heritage and Humanities Center, University of South Florida Libraries
" collectorsURL="https://www.lib.usf.edu/dhhc/" /><marker doi="pvkt-zq12" country="Pakistan" project_name="Shiva Mandir Johi" lat="26.689398" lng="67.611085" status="Published" collection_date_start="2015-09-15" collection_date_end="2015-09-16" collectors="Lahore University of Management Sciences" collectorsURL="http://heritage360.pk/" /><marker doi="q70e-6p13" country="Maldives" project_name="Dhandimagu Miskiyy (GNI-DDM-5 )" lat="-0.289610286112" lng="73.413438937477" status="Published" collection_date_start="2018-11-04" collection_date_end="2018-11-05" collectors="Maldives Heritage Survey" collectorsURL="https://maldivesheritage.oxcis.ac.uk/" /><marker doi="q881-zx15" country="Cabo Verde" project_name="Cidade Velha - Pillory" lat="14.915020" lng="-23.605050" status="Published" collection_date_start="2015-03-01" collection_date_end="2015-03-06" collectors="CyArk" collectorsURL="https://cyark.org/" /><marker doi="qafh-a256" country="France" project_name="Oise-Aisne American Cemetery" lat="49.203627" lng="3.547227" status="Upcoming" collection_date_start="2016-08-03" collection_date_end="2016-08-04" collectors="CyArk" collectorsURL="https://cyark.org/" /><marker doi="qcc3-b484" country="United States of America" project_name="Fort Laramie National Historic Site" lat="42.2030181" lng="-104.55799" status="Published" collection_date_start="2009-09-18" collection_date_end="2009-09-21" collectors="CyArk , Sky Bucket 3D" collectorsURL="https://cyark.org/ , " /><marker doi="qdpd-2250" country="United States of America" project_name="USS Pampanito Submarine" lat="37.809941" lng="-122.416395" status="Published" collection_date_start="2016-11-11" collection_date_end="2016-11-11" collectors="Autodesk , Topcon , 3D Robotics , USS Pampanito" collectorsURL="https://autodesk.com , https://www.topconpositioning.com , https://3dr.com , https://maritime.org/sub" /><marker doi="qg7a-d271" country="United States of America" project_name="San Antonio Missions - Mission Concepcion" lat="29.3910369" lng="-98.4933448" status="Published" collection_date_start="2010-01-20" collection_date_end="2010-02-02" collectors="Critigen , CyArk" collectorsURL="http://www.critigen.com , https://cyark.org/" /><marker doi="qhqk-3425" country="South Africa" project_name="Corbelled Houses of Karoo - Werda" lat="-31.56834" lng="22.0291" status="Published" collection_date_start="0000-00-00" collection_date_end="0000-00-00" collectors="The African Conservation Trust , University of KwaZulu-Natal" collectorsURL="https://projectafrica.com/ , https://www.ukzn.ac.za/" /><marker doi="qjsg-hq73" country="New Zealand" project_name="Waitangi - Te Whare Rūnanga" lat="-35.265743" lng="174.082733" status="Published" collection_date_start="2017-09-20" collection_date_end="2017-12-08" collectors="CyArk" collectorsURL="https://cyark.org/" /><marker doi="qkhk-s475" country="Tunisia" project_name="Amphitheatre of Carthage" lat="36.857887" lng="10.329568" status="Published" collection_date_start="2012-06-27" collection_date_end="2012-07-02" collectors="La Sapienza University , The Department of Antiquities (DoA) in Jordan" collectorsURL="https://www.uniroma1.it/it/l , http://doa.gov.jo/Homeen.aspx" /><marker doi="qx9f-av27" country="United States of America" project_name="Deadwood" lat="44.377964" lng="-103.729139" status="Published" collection_date_start="2003-05-07" collection_date_end="2003-05-28" collectors="TSP Architects" collectorsURL="https://teamtsp.com/" /><marker doi="qzje-rr80" country="Maldives" project_name="Baa Miskiyy (KFA-TLS-1 )" lat="4.3659227523406" lng="73.651901049311" status="Published" collection_date_start="2019-03-04" collection_date_end="2019-03-10" collectors="Maldives Heritage Survey" collectorsURL="https://maldivesheritage.oxcis.ac.uk/" /><marker doi="r3yx-0c81" country="Maldives" project_name="Gan Mound (LAM-GAN-2 )" lat="1.893671241" lng="73.53697054" status="Published" collection_date_start="2018-08-13" collection_date_end="2018-09-13" collectors="Maldives Heritage Survey" collectorsURL="https://maldivesheritage.oxcis.ac.uk/" /><marker doi="r518-1t94" country="Somaliland" project_name="Rock Art Sites of Somaliland - Nabi Galay" lat="  9.756888" lng=" 44.576618" status="Published" collection_date_start="2013-09-10" collection_date_end="2013-09-15" collectors="CyArk" collectorsURL="https://cyark.org/" /><marker doi="rebk-tb21" country="United States of America" project_name="Star of India, Maritime Museum of San Diego" lat="32.720375" lng="-117.173548" status="Published" collection_date_start="2020-02-18" collection_date_end="2020-02-18" collectors="University of California, San Diego Library" collectorsURL="https://library.ucsd.edu/" /><marker doi="s9by-nv28" country="Egypt" project_name="Ramesseum - Thebes" lat="25.72766" lng="32.61053" status="Published" collection_date_start="2004-07-05" collection_date_end="2004-07-12" collectors="INSIGHT , Plowman Craven , Xenexus" collectorsURL="http://insightdigital.org/ , https://www.plowmancraven.co.uk/ , http://xenexus.com/" /><marker doi="sgf3-qp47" country="Myanmar" project_name="Bagan - Ananda Ok Kyaung" lat="21.171873" lng="94.867177" status="Upcoming" collection_date_start="2017-04-20" collection_date_end="2017-04-28" collectors="CyArk" collectorsURL="https://cyark.org/" /><marker doi="srn0-8v04" country="Italy" project_name="Santa Maria Antiqua al foro Romano" lat="41.891184" lng="12.485681" status="Published" collection_date_start="2007-05-28" collection_date_end="2007-06-06" collectors="Texas Tech University , Ball State University" collectorsURL="https://www.ttu.edu/ , https://www.bsu.edu/" /><marker doi="ssvf-5286" country="Spain" project_name="Santa Maria d'Agramunt Portico" lat="41.78722" lng="1.09895" status="Published" collection_date_start="2015-10-09" collection_date_end="2015-10-09" collectors="Calidos" collectorsURL="http://www.calidos.cat/" /><marker doi="svf0-yb84" country="Maldives" project_name="Vasha Veyo (GNI-DDG-1)" lat="-0.308406194853" lng="73.432553020788" status="Published" collection_date_start="2018-10-24" collection_date_end="2018-10-24" collectors="Maldives Heritage Survey" collectorsURL="https://maldivesheritage.oxcis.ac.uk/" /><marker doi="sxhy-m751" country="Maldives" project_name="The Old Friday Mosque at Fonadhoo (LAM-FND-4)" lat="1.8328013024976" lng="73.501822588429" status="Published" collection_date_start="2018-08-25" collection_date_end="2018-08-25" collectors="Maldives Heritage Survey" collectorsURL="https://maldivesheritage.oxcis.ac.uk/" /><marker doi="sy3v-j946" country="South Africa" project_name="Corbelled Houses of Karoo - Rietpoort" lat="-31.63772" lng="21.9842" status="Published" collection_date_start="0000-00-00" collection_date_end="0000-00-00" collectors="The African Conservation Trust , University of KwaZulu-Natal" collectorsURL="https://projectafrica.com/ , https://www.ukzn.ac.za/" /><marker doi="sy7x-fz63" country="Bangladesh" project_name="Sixty Dome Mosque - Mosque City of Bagerhat" lat="22.674482" lng="89.741823" status="Published" collection_date_start="2019-04-23" collection_date_end="2019-05-03" collectors="CyArk" collectorsURL="https://cyark.org/" /><marker doi="t2d3-s071" country="Japan" project_name="Naniwa-Sumiyoshi Komainu" lat="34.666904" lng="135.460492" status="Published" collection_date_start="2019-06-27" collection_date_end="2019-06-29" collectors="NRHK" collectorsURL="https://www.nrhk.or.jp/" /><marker doi="t3mf-d997" country="United States of America" project_name="Cape Canaveral Space History - Gemini Manned Missions at Launch Complex 19" lat="28.506714" lng="-80.554250" status="Upcoming" collection_date_start="2015-08-26" collection_date_end="2015-08-28" collectors="Digital Heritage and Humanities Center, University of South Florida Libraries
" collectorsURL="https://www.lib.usf.edu/dhhc/" /><marker doi="taz6-n215" country="Thailand" project_name="Ayutthaya - Wat Phra Si Sanphet" lat="14.3558549" lng="100.558410" status="Published" collection_date_start="2017-06-19" collection_date_end="2017-06-26" collectors="CyArk" collectorsURL="https://cyark.org/" /><marker doi="tmfy-yc09" country="United States of America" project_name="San Antonio Missions - Mission  San Juan" lat="29.346849" lng="-98.4756907" status="Published" collection_date_start="2010-01-20" collection_date_end="2010-02-02" collectors="Critigen , CyArk" collectorsURL="http://www.critigen.com , https://cyark.org/" /><marker doi="tnav-3t41" country="Taiwan" project_name="Lukang Longshan Temple" lat="24.050433" lng="120.435436" status="Published" collection_date_start="2016-04-25" collection_date_end="2016-04-26" collectors="CyArk , China University of Technology (CUTe)" collectorsURL="https://cyark.org/ , http://www.cute.edu.tw/en/" /><marker doi="tt9n-0168" country="United States of America" project_name="Cape Canaveral Space History - Mercury Friendship 7 at Launch Complex 14" lat="28.491092" lng="-80.546839" status="Upcoming" collection_date_start="2018-03-19" collection_date_end="2018-03-19" collectors="Digital Heritage and Humanities Center, University of South Florida Libraries
" collectorsURL="https://www.lib.usf.edu/dhhc/" /><marker doi="twzt-kd05" country="France" project_name="Suresnes American Cemetery" lat="48.871776" lng="2.217431" status="Upcoming" collection_date_start="2016-07-27" collection_date_end="2016-07-28" collectors="CyArk" collectorsURL="https://cyark.org/" /><marker doi="txve-tm52" country="Spain" project_name="Theatre and Amphitheatre of Merida" lat="38.91599" lng="-6.338139" status="Published" collection_date_start="2009-12-04" collection_date_end="2009-12-09" collectors="La Sapienza University , The Department of Antiquities (DoA) in Jordan" collectorsURL="https://www.uniroma1.it/it/l , http://doa.gov.jo/Homeen.aspx" /><marker doi="tyye-f633" country="Maldives" project_name="Gem Miskiyy (GNI-DDM-1)" lat="-0.280675302518" lng="73.415712958881" status="Published" collection_date_start="2018-10-10" collection_date_end="2018-10-20" collectors="Maldives Heritage Survey" collectorsURL="https://maldivesheritage.oxcis.ac.uk/" /><marker doi="v1pz-0r22" country="New Zealand" project_name="Waitangi - Ngātokimatawhaorua" lat="-35.267961" lng="174.082106" status="Published" collection_date_start="2017-09-20" collection_date_end="2017-12-08" collectors="CyArk" collectorsURL="https://cyark.org/" /><marker doi="v398-0657" country="United States of America" project_name="San Antonio Missions - Mission San Jose" lat="29.3182497" lng="-98.4550949" status="Published" collection_date_start="2010-01-20" collection_date_end="2010-02-02" collectors="Critigen , CyArk" collectorsURL="http://www.critigen.com , https://cyark.org/" /><marker doi="v7a2-me37" country="Somaliland" project_name="Rock Art Sites of Somaliland - Laas Geel" lat="  9.781088" lng=" 44.443695" status="Published" collection_date_start="2013-09-10" collection_date_end="2013-09-15" collectors="CyArk" collectorsURL="https://cyark.org/" /><marker doi="vdae-mr89" country="Mexico" project_name="Palace of Fine Arts" lat="19.43520" lng="-99.141200" status="Published" collection_date_start="2018-10-01" collection_date_end="2018-10-05" collectors="CyArk" collectorsURL="https://cyark.org/" /><marker doi="vekr-zf42" country="Canada" project_name="Fort Conger" lat="81.744574" lng="-64.783064" status="Published" collection_date_start="2010-07-17" collection_date_end="2010-07-30" collectors="University of Calgary" collectorsURL="https://www.ucalgary.ca/" /><marker doi="vf8z-df24" country="South Africa" project_name="Corbelled Houses of Karoo - Silvery Holme" lat="-31.4882" lng="22.23402" status="Published" collection_date_start="0000-00-00" collection_date_end="0000-00-00" collectors="The African Conservation Trust , University of KwaZulu-Natal" collectorsURL="https://projectafrica.com/ , https://www.ukzn.ac.za/" /><marker doi="vngf-1h12" country="Cambodia" project_name="Angkor Wat Western Causeway" lat="13.412556" lng="103.860628" status="Published" collection_date_start="2004-03-05" collection_date_end="2004-03-12" collectors="University of California Berkeley , Sophia University of Tokyo, Japan" collectorsURL="https://www.berkeley.edu/ , https://www.sophia.ac.jp/eng/" /><marker doi="vv0h-dq68" country="United States of America" project_name="Annaberg Plantation" lat="18.3644447" lng="-64.728889" status="Published" collection_date_start="2015-04-13" collection_date_end="2015-04-18" collectors="CyArk , Trimble" collectorsURL="https://cyark.org/ , https://www.trimble.com/" /><marker doi="vwr1-4991" country="Maldives" project_name="Gan Mound (LAM-GAN-2-S2 )" lat="1.8936712407422" lng="73.536970538455" status="Published" collection_date_start="2018-08-13" collection_date_end="2018-09-13" collectors="Maldives Heritage Survey" collectorsURL="https://maldivesheritage.oxcis.ac.uk/" /><marker doi="w47s-yq72" country="Mexico" project_name="Templo Mayor" lat="19.4346046" lng="-99.131881" status="Published" collection_date_start="2016-03-10" collection_date_end="2016-03-11" collectors="CyArk" collectorsURL="https://cyark.org/" /><marker doi="w54r-pb82" country="Peru" project_name="Chavín de Huantar" lat="-9.5943679" lng="-77.177551" status="Published" collection_date_start="2017-07-17" collection_date_end="2017-07-24" collectors="CyArk" collectorsURL="https://cyark.org/" /><marker doi="w6g8-zh94" country="Tanzania" project_name="Malindi Mosque - Kilwa Kisiwani" lat="-8.958015" lng="39.50014" status="Published" collection_date_start="2018-12-11" collection_date_end="2018-12-19" collectors="CyArk" collectorsURL="https://cyark.org/" /><marker doi="wd8n-1z74" country="Maldives" project_name="Maaloodhu Gee - Keela (HAF-KLA-1)" lat="6.9597695754" lng="73.2146389129" status="Published" collection_date_start="2020-02-02" collection_date_end="2020-02-02" collectors="Maldives Heritage Survey" collectorsURL="https://maldivesheritage.oxcis.ac.uk/" /><marker doi="wr06-mh92" country="Nigeria" project_name="Ojúbo Òsogbo" lat="7.755538" lng="4.551601" status="Published" collection_date_start="2019-09-19" collection_date_end="2019-09-24" collectors="CyArk , Ímísí3D" collectorsURL="https://cyark.org/ , http://imisi3d.com/   " /><marker doi="wrg9-p135" country="Jordan" project_name="Downtown Madaba" lat="31.716486" lng="35.794805" status="Published" collection_date_start="2019-10-24" collection_date_end="2019-10-24" collectors="Aerial Photographic Archive for Archaeology in the Middle East (APAAME)" collectorsURL="http://www.apaame.org/" /><marker doi="ws0a-3g91" country="Syria" project_name="Al Azem Palace" lat="33.5102348" lng="36.3070869" status="Published" collection_date_start="2017-02-26" collection_date_end="2017-05-05" collectors="Directorate General of Antiquities and Museums" collectorsURL="http://www.dgam.gov.sy/" /><marker doi="wvvm-ck87" country="Syria" project_name="Khan As'ad Pasha" lat="33.509278" lng="36.30666" status="Published" collection_date_start="2017-08-09" collection_date_end="2017-08-14" collectors="Directorate General of Antiquities and Museums" collectorsURL="http://www.dgam.gov.sy/" /><marker doi="wx4e-hr62" country="Myanmar" project_name="Bagan - Khe Min Ga Zedi" lat="21.177291" lng="94.875676" status="Upcoming" collection_date_start="2017-04-20" collection_date_end="2017-04-28" collectors="CyArk" collectorsURL="https://cyark.org/" /><marker doi="x03k-3p09" country="France" project_name="Cloister of St. Trophime" lat="43.6767005" lng="4.62779998" status="Upcoming" collection_date_start="2009-03-27" collection_date_end="2009-04-05" collectors="CyArk , Christofori und Partner" collectorsURL="https://cyark.org/ , http://www.christofori.de/" /><marker doi="x8t5-r843" country="United States of America" project_name="Kathleen" lat="37.806411" lng="-122.423904" status="Published" collection_date_start="2012-06-14" collection_date_end="2012-06-14" collectors="Gauge Point Calibration , CyArk" collectorsURL="http://www.gaugepoint.com/ , https://cyark.org/" /><marker doi="xgd9-jw35" country="France" project_name="Pointe du Hoc" lat="49.397822" lng="-0.989506" status="Upcoming" collection_date_start="2016-12-20" collection_date_end="2016-12-22" collectors="CyArk" collectorsURL="https://cyark.org/" /><marker doi="xgje-dv75" country="France" project_name="Chateau-Thierry American Monument" lat="49.041962" lng="3.371701" status="Upcoming" collection_date_start="2018-02-25" collection_date_end="2018-03-02" collectors="CyArk" collectorsURL="https://cyark.org/" /><marker doi="xhj8-8x48" country="Spain" project_name="Montcortès Castle and Santa Anna Church" lat="41.706614" lng="1.230057" status="Published" collection_date_start="2017-02-16" collection_date_end="2017-02-16" collectors="Calidos" collectorsURL="http://www.calidos.cat/" /><marker doi="xjrn-0h22" country="Japan" project_name="Okazaki komainu" lat="34.66639" lng="135.46028" status="Published" collection_date_start="2019-06-27" collection_date_end="2019-06-29" collectors="NRHK" collectorsURL="https://www.nrhk.or.jp/" /><marker doi="xvd8-hn19" country="Maldives" project_name="Budhuge (LAM-MUN-3)" lat="2.013269402" lng="73.5337118" status="Published" collection_date_start="2018-09-29" collection_date_end="2018-09-30" collectors="Maldives Heritage Survey" collectorsURL="https://maldivesheritage.oxcis.ac.uk/" /><marker doi="xypg-he49" country="Bangladesh" project_name="Nine Dome Mosque - Mosque City of Bagerhat" lat="22.658487" lng="89.755398" status="Published" collection_date_start="2019-04-23" collection_date_end="2019-05-03" collectors="CyArk" collectorsURL="https://cyark.org/" /><marker doi="xzvt-q669" country="United States of America" project_name="Mission San Juan Bautista" lat="36.845826" lng="-121.536219" status="Published" collection_date_start="2012-12-19" collection_date_end="2012-12-21" collectors="CyArk" collectorsURL="https://cyark.org/" /><marker doi="y65f-hh13" country="United States of America" project_name="Waikiki Natatorium War Memorial" lat="21.2644443" lng="-157.82194" status="Published" collection_date_start="2015-04-16" collection_date_end="2015-04-16" collectors="CyArk , Mid-Pacific Institute" collectorsURL="https://cyark.org/ , http://www.midpac.edu/" /><marker doi="yezt-e606" country="South Africa" project_name="Corbelled Houses of Karoo - Leifontein" lat="-31.26187" lng="22.60622" status="Published" collection_date_start="0000-00-00" collection_date_end="0000-00-00" collectors="The African Conservation Trust , University of KwaZulu-Natal" collectorsURL="https://projectafrica.com/ , https://www.ukzn.ac.za/" /><marker doi="yh9w-3b63" country="Peru" project_name="Tambo Colorado" lat="-13.705533" lng="-75.829200" status="Published" collection_date_start="2005-08-04" collection_date_end="2005-09-04" collectors="University of California, Berkeley , The Institute for Applied Technologies for Cultural Assets" collectorsURL="https://www.berkeley.edu/ , http://www.itabc.cnr.it/" /><marker doi="yn09-ys46" country="United States of America" project_name="Mission San Juan Bautista" lat="36.845919" lng="-121.535778" status="Published" collection_date_start="2012-12-19" collection_date_end="2012-12-21" collectors="CyArk , California State University Monterey Bay" collectorsURL="https://cyark.org/ , https://csumb.edu/" /><marker doi="ys65-1p53" country="Lebanon" project_name="Temple of Eshmun" lat="33.5855522" lng="35.3979301" status="Published" collection_date_start="2017-01-16" collection_date_end="2017-01-18" collectors="Directorate General of Antiquities of Lebanon , CyArk , Directorate General of Antiquities and Museums" collectorsURL="http://culture.gov.lb/ar/Home , https://cyark.org/ , http://www.dgam.gov.sy/" /><marker doi="yva5-pc90" country="United States of America" project_name="Taos Pueblo" lat="36.4387435" lng="-105.54540" status="Published" collection_date_start="2010-09-01" collection_date_end="2010-09-15" collectors="Nolte Engineering , URC Ventures , CyArk" collectorsURL="https://www.nv5.com/ , http://www.urcventures.com/ , https://cyark.org/" /><marker doi="yyvg-1157" country="Maldives" project_name="Kuagannu Cemetery - Hulhumeedhoo (SEN-HMD-1)" lat="-0.581055342" lng="73.22880673" status="Published" collection_date_start="2019-07-21" collection_date_end="2019-08-05" collectors="Maldives Heritage Survey" collectorsURL="https://maldivesheritage.oxcis.ac.uk/" /><marker doi="z0sk-hv44" country="Cambodia" project_name="Banteay Kdei Temple - Angkor" lat="13.430027" lng="103.898614" status="Published" collection_date_start="2004-03-05" collection_date_end="2004-03-12" collectors="University of California Berkeley , Sophia University of Tokyo, Japan" collectorsURL="https://www.berkeley.edu/ , https://www.sophia.ac.jp/eng/" /><marker doi="z4ay-yf48" country="Syria" project_name="Madrasa al-Jaqmaqiya" lat="33.512545" lng="36.306487" status="Published" collection_date_start="2017-08-10" collection_date_end="2017-08-22" collectors="Directorate General of Antiquities and Museums" collectorsURL="http://www.dgam.gov.sy/" /><marker doi="z6s0-j283" country="Maldives" project_name="Abdullah Didi Miskiyy (SEN-HMD-4)" lat="-0.597702336865" lng="73.225477797023" status="Published" collection_date_start="2019-08-06" collection_date_end="2019-08-06" collectors="Maldives Heritage Survey" collectorsURL="https://maldivesheritage.oxcis.ac.uk/" /><marker doi="zda7-4p73" country="Maldives" project_name="Kandhuvalu Miskiyy (HAF-UTM-1)" lat="6.8348943459596" lng="73.110343833365" status="Published" collection_date_start="2019-12-08" collection_date_end="2019-12-09" collectors="Maldives Heritage Survey" collectorsURL="https://maldivesheritage.oxcis.ac.uk/" /><marker doi="zdtd-mt66" country="United States of America" project_name="Honouliuli Internment Camp" lat="21.391664" lng="-158.05972" status="Published" collection_date_start="2015-04-08" collection_date_end="2015-04-15" collectors="Mid-Pacific Institute , CyArk" collectorsURL="http://www.midpac.edu/ , https://cyark.org/" /><marker doi="zjnn-wx58" country="Syria" project_name="Temple of Bel Tourist Photo Reconstruction" lat="34.54738" lng="38.27393" status="Published" collection_date_start="1974-04-14" collection_date_end="2014-06-24" collectors="University of California, San Diego Library" collectorsURL="https://library.ucsd.edu/" /><marker doi="zn32-tc25" country="Cabo Verde" project_name="Cidade Velha - Church" lat="14.916542" lng="-23.605231" status="Published" collection_date_start="2015-03-01" collection_date_end="2015-03-06" collectors="CyArk" collectorsURL="https://cyark.org/" /></markers>